[
  {
    "id": 145,
    "name": "TANGADAN FALLS San Gabrirl L.U",
    "imageUrl":"https://www.google.com.ph/search?q=tangadan+falls+coordinates&rlz=1C1CHBD_enPH791PH791&source=lnms&tbm=isch&sa=X&ved=0ahUKEwjKtvyzuarcAhUZdt4KHdCrBBQQ_AUICigB&biw=1920&bih=925#imgrc=JYZRzu0EiHcQOM:",
    "price": 20,
    "priceCurrency": "PHP",
    "lat": 16.6436,
    "lng": 120.4488
  },
  {
    "id": 148,
    "name": "MACHO TEMPLE San Fernando L.U",
    "imageUrl": "https://www.google.com.ph/search?q=macho+temple&rlz=1C1CHBD_enPH791PH791&source=lnms&tbm=isch&sa=X&ved=0ahUKEwjT6PSxvqrcAhXI7WEKHZ8KCicQ_AUICigB&biw=1920&bih=925#imgrc=AuwZXjZiTr5ibM:",
    "price": 20,
    "priceCurrency": "PHP",
    "lat": 16.6212,
    "lng": 120.3175
  },
  {
    "id": 201,
    "name": "KAMAY NA BATO Luna L.U",
    "imageUrl":"https://www.google.com.ph/search?rlz=1C1CHBD_enPH791PH791&biw=1920&bih=925&tbm=isch&sa=1&ei=WSlQW_aCHNv6-QaDrIp4&q=kamay+na+bato+la+union&oq=kama+na+bato&gs_l=img.3.0.0i7i30k1l4.27234.29638.0.31246.4.4.0.0.0.0.71.265.4.4.0....0...1c.1.64.img..0.4.265...0i7i5i30k1j0i8i7i30k1.0.BDTBNU3NDUU#imgrc=xpe9emHR7Y32sM:",
    "price": 50,
    "priceCurrency": "PHP",
    "lat": 48.885312,
    "lng": 2.341225
  },
  {
    "id": 205,
    "name": "Splendide terrasse vue imprenable",
    "imageUrl": "https://raw.githubusercontent.com/lewagon/flats-boilerplate/master/images/flat4.jpg",
    "price": 115,
    "priceCurrency": "EUR",
    "lat": 48.881840,
    "lng": 2.343371
  },
  {
    "id": 210,
    "name": "Superbe vue à 2 min du Sacré Coeur",
    "imageUrl": "https://raw.githubusercontent.com/lewagon/flats-boilerplate/master/images/flat5.jpg",
    "price": 135,
    "priceCurrency": "EUR",
    "lat": 48.888839,
    "lng": 2.339208
  },
  {
    "id": 211,
    "name": "Bohemian and Chic in Paris",
    "imageUrl": "https://raw.githubusercontent.com/lewagon/flats-boilerplate/master/images/flat6.jpg",
    "price": 90,
    "priceCurrency": "EUR",
    "lat": 48.827855,
    "lng": 2.350774
  }
]
