[
  {
    "id": 145,
    "name": "ELNIDO ,Palawan",
    "imageUrl":"https://raw.githubusercontent.com/Mayville/TSOLU/master/TangadanFalls_06.jpg",
    "price":100,
    "priceCurrency": "₱",
    "lat": 16.6694,
    "lng": 120.5049
  },
  {
    "id": 148,
    "name": "BATANES ISLAND ,Batanes",
    "imageUrl": "https://raw.githubusercontent.com/Mayville/TSOLU/master/16334753526_cab4bfe4f4_b.jpg",
    "price": 20,
    "priceCurrency": "₱",
    "lat": 16.6212,
    "lng": 120.3175
  },
  {
    "id": 201,
    "name": "CAMIGUIN ISLAND ,Camiguin",
    "imageUrl":"https://raw.githubusercontent.com/Mayville/TSOLU/master/san-juan-kz-riman-6.jpg",
    "price": 60,
    "priceCurrency": "₱",
    "lat": 16.8308,
    "lng":  120.3551
  },
  {
    "id": 205,
    "name": "CORON ,Palawan",
    "imageUrl": "https://raw.githubusercontent.com/Mayville/TSOLU/master/peeble.jpg",
    "price": 30,
    "priceCurrency": "₱",
    "lat": 16.8393,
    "lng": 120.3382
  },
  {
    "id": 210,
    "name": "BANANUE RICE TERRACES ,Ifugao",
    "imageUrl": "https://raw.githubusercontent.com/Mayville/TSOLU/master/download.jpg",
    "price": 200,
    "priceCurrency": "₱",
    "lat": 16.6091,
    "lng": 120.2865
  },
    {
    "id": 212,
    "name": "PUERTO PRINCESA ,Palawan",
    "imageUrl": "https://raw.githubusercontent.com/Mayville/TSOLU/master/33.JPG",
    "price": 300,
    "priceCurrency": "₱",
    "lat": 16.5143,
    "lng": 120.3551
  },
  {
    "id": 213,
    "name": "CHOCOLATE HILLS ,Bohol",
    "imageUrl": "https://raw.githubusercontent.com/Mayville/TSOLU/master/34.jpg",
    "price": 100,
    "priceCurrency": "₱",
    "lat":16.8568,
    "lng": 120.3729
  },
  {
    "id": 214,
    "name": "VIGAN ,Ilocos Sur",
    "imageUrl": "https://raw.githubusercontent.com/Mayville/TSOLU/master/35.jpg",
    "price": 1000,
    "priceCurrency": "₱",
    "lat": 16.6173,
    "lng": 120.3198
  },
  {
    "id": 215,
    "name": "THE MANSION ,Baguio",
    "imageUrl": "https://raw.githubusercontent.com/Mayville/TSOLU/master/36.jpg",
    "price": 30,
    "priceCurrency": "₱",
    "lat": 16.3247,
    "lng": 120.3551
  },
  {
    "id": 212,
    "name": "BANGUI WINDMILLS ,ILOCOS NORTE",
    "imageUrl": "https://raw.githubusercontent.com/Mayville/TSOLU/master/37.jpg",
    "price": 20,
    "priceCurrency": "₱",
    "lat": 16.5881,
    "lng": 120.3146
  },
  {
    "id": 216,
    "name": "FANTASY WORLD ,Batangas",
    "imageUrl": "https://raw.githubusercontent.com/Mayville/TSOLU/master/39.jpg",
    "price": 300,
    "priceCurrency": "₱",
    "lat": 16.3367,
    "lng": 120.4788
  },
  {
    "id": 217,
    "name": "BALAY ANITO FALLS Santol  L.U",
    "imageUrl": "https://raw.githubusercontent.com/Mayville/TSOLU/master/38.jpg",
    "price": 50,
    "priceCurrency": "₱",
    "lat": 16.7379,
    "lng": 120.4546
  },
   {
    "id": 217,
    "name": "BORACAY ISLAND ,Aklan",
    "imageUrl": "https://raw.githubusercontent.com/Mayville/TSOLU/master/38.jpg",
    "price": 50,
    "priceCurrency": "₱",
    "lat": 16.7379,
    "lng": 120.4546
  },
   {
    "id": 217,
    "name": "MALAPASCUA ISLAND ,Cebu",
    "imageUrl": "https://raw.githubusercontent.com/Mayville/TSOLU/master/38.jpg",
    "price": 50,
    "priceCurrency": "₱",
    "lat": 16.7379,
    "lng": 120.4546
  },
   {
    "id": 217,
    "name": "MAYON VALCANO ,Albay",
    "imageUrl": "https://raw.githubusercontent.com/Mayville/TSOLU/master/38.jpg",
    "price": 50,
    "priceCurrency": "₱",
    "lat": 16.7379,
    "lng": 120.4546
  },
   {
    "id": 217,
    "name": "TAAL VALCANO ,Tagaytay",
    "imageUrl": "https://raw.githubusercontent.com/Mayville/TSOLU/master/38.jpg",
    "price": 50,
    "priceCurrency": "₱",
    "lat": 16.7379,
    "lng": 120.4546
  },
   {
    "id": 217,
    "name": "HUNDRED ISLAND ,Pangasinan",
    "imageUrl": "https://raw.githubusercontent.com/Mayville/TSOLU/master/38.jpg",
    "price": 50,
    "priceCurrency": "₱",
    "lat": 16.7379,
    "lng": 120.4546
  },
  {
    "id": 211,
    "name": "LIPAY SUR San Gabriel L.U",
    "imageUrl": "https://raw.githubusercontent.com/Mayville/TSOLU/master/13.png",
    "price": 16,
    "priceCurrency": "₱",
    "lat":  16.6694,
    "lng": 120.5049
  }
]
