[
  {
    "id": 145,
    "name": "TANGADAN FALLS San Gabrirl L.U",
    "imageUrl":"https://raw.githubusercontent.com/Mayville/TSOLU/master/TangadanFalls_06.jpg",
    "price":"PHP",
    "priceCurrency": "100",
    "lat": 16.6436,
    "lng": 120.4488
  },
  {
    "id": 148,
    "name": "MACHO TEMPLE San Fernando L.U",
    "imageUrl": "https://raw.githubusercontent.com/Mayville/TSOLU/master/16334753526_cab4bfe4f4_b.jpg",
    "price": "PHP",
    "priceCurrency": 20,
    "lat": 16.6212,
    "lng": 120.3175
  },
  {
    "id": 201,
    "name": "KAMAY NA BATO Luna L.U",
    "imageUrl":"https://raw.githubusercontent.com/Mayville/TSOLU/master/san-juan-kz-riman-6.jpg",
    "price": "PHP",
    "priceCurrency": 60,
    "lat": 48.885312,
    "lng": 2.341225
  },
  {
    "id": 205,
    "name": "PEBBLE BEACH Luna L.U",
    "imageUrl": "https://raw.githubusercontent.com/Mayville/TSOLU/master/peeble.jpg",
    "price": "PHP",
    "priceCurrency": 30,
    "lat": 48.881840,
    "lng": 2.343371
  },
  {
    "id": 210,
    "name": "THUNDERBIRD RESORT San Fernando L.U",
    "imageUrl": "https://raw.githubusercontent.com/Mayville/TSOLU/master/download.jpg",
    "price": "PHP",
    "priceCurrency": 200,
    "lat": 48.888839,
    "lng": 2.339208
  },
    {
    "id": 212,
    "name": "GRAPE PICKING Bauang L.U",
    "imageUrl": "https://raw.githubusercontent.com/Mayville/TSOLU/master/33.JPG",
    "price": "PHP",
    "priceCurrency": 300,
    "lat": 48.888839,
    "lng": 2.339208
  },
  {
    "id": 213,
    "name": "WATCH TOWER Luna L.U",
    "imageUrl": "https://raw.githubusercontent.com/Mayville/TSOLU/master/34.jpg",
    "price": "PHP",
    "priceCurrency": 100,
    "lat": 48.888839,
    "lng": 2.339208
  },
  {
    "id": 214,
    "name": "HALO HALO DE ILOKO San Fernando L.U",
    "imageUrl": "https://raw.githubusercontent.com/Mayville/TSOLU/master/35.jpg",
    "price": "PHP",
    "priceCurrency": 1000,
    "lat": 48.888839,
    "lng": 2.339208
  },
  {
    "id": 215,
    "name": "BASILICA MINORE OF OUR LADY OF CHARITY Agoo L.U",
    "imageUrl": "https://raw.githubusercontent.com/Mayville/TSOLU/master/36.jpg",
    "price": "PHP,
    "priceCurrency": 30,
    "lat": 48.888839,
    "lng": 2.339208
  },
  {
    "id": 212,
    "name": "PINDANGAN RUINS San Fernando L.U",
    "imageUrl": "https://raw.githubusercontent.com/Mayville/TSOLU/master/37.jpg",
    "price": 300,
    "priceCurrency": "PHP",
    "lat": 48.888839,
    "lng": 2.339208
  },
  {
    "id": 216,
    "name": "PUGAD ADVENTURE Pugo L.U",
    "imageUrl": "https://raw.githubusercontent.com/Mayville/TSOLU/master/39.jpg",
    "price": "PHP",
    "priceCurrency": 300,
    "lat": 48.888839,
    "lng": 2.339208
  },
  {
    "id": 217,
    "name": "GRAPE PICKING Bauang L.U",
    "imageUrl": "https://raw.githubusercontent.com/Mayville/TSOLU/master/33.JPG",
    "price": 300,
    "priceCurrency": "PHP",
    "lat": 48.888839,
    "lng": 2.339208
  },
  {
    "id": 211,
    "name": "LIPAY SUR San Gabriel L.U",
    "imageUrl": "https://raw.githubusercontent.com/Mayville/TSOLU/master/13.png",
    "price": 50,
    "priceCurrency": "PHP",
    "lat": 48.827855,
    "lng": 2.350774
  }
]
