[
  {
    "id": 145,
    "name": "TANGADAN FALLS San Gabrirl L.U",
    "imageUrl":"https://raw.githubusercontent.com/Mayville/TSOLU/master/TangadanFalls_06.jpg",
    "price": 50,
    "priceCurrency": "PHP",
    "lat": 16.6436,
    "lng": 120.4488
  },
  {
    "id": 148,
    "name": "MACHO TEMPLE San Fernando L.U",
    "imageUrl": "https://raw.githubusercontent.com/Mayville/TSOLU/master/16334753526_cab4bfe4f4_b.jpg",
    "price": 20,
    "priceCurrency": "PHP",
    "lat": 16.6212,
    "lng": 120.3175
  },
  {
    "id": 201,
    "name": "KAMAY NA BATO Luna L.U",
    "imageUrl":"https://raw.githubusercontent.com/Mayville/TSOLU/master/san-juan-kz-riman-6.jpg",
    "price": 60,
    "priceCurrency": "PHP",
    "lat": 48.885312,
    "lng": 2.341225
  },
  {
    "id": 205,
    "name": "PEBBLE BEACH Luna L.U",
    "imageUrl": "https://raw.githubusercontent.com/Mayville/TSOLU/master/peeble.jpg",
    "price": 30,
    "priceCurrency": "PHP",
    "lat": 48.881840,
    "lng": 2.343371
  },
  {
    "id": 210,
    "name": "THUNDERBIRD RESORT San Fernando L.U",
    "imageUrl": "https://raw.githubusercontent.com/Mayville/TSOLU/master/download.jpg",
    "price": 200,
    "priceCurrency": "PHP",
    "lat": 48.888839,
    "lng": 2.339208
  },
    {
    "id": 209,
    "name": "GRAPE PICKING Bauang L.U",
    "imageUrl": "https://raw.githubusercontent.com/Mayville/TSOLU/master/download.jpg",
    "price": 300,
    "priceCurrency": "PHP",
    "lat": 48.888839,
    "lng": 2.339208
  },
  {
    "id": 211,
    "name": "LIPAY SUR San Gabriel L.U",
    "imageUrl": "https://raw.githubusercontent.com/Mayville/TSOLU/master/13.png",
    "price": 50,
    "priceCurrency": "PHP",
    "lat": 48.827855,
    "lng": 2.350774
  }
]
