[
  {
    "id": 145,
    "name": "ELNIDO ,Palawan",
    "imageUrl":"https://raw.githubusercontent.com/Mayville/TSOLU/master/B.jpg",
    "price":595 ,
    "priceCurrency": "Km",
    "lat": 11.2097,
    "lng": 119.4623
  },
  {
    "id": 148,
    "name": "BATANES ISLAND ,Batanes",
    "imageUrl": "https://raw.githubusercontent.com/Mayville/TSOLU/master/D.jpg",
    "price": 3000,
    "priceCurrency": "Km",
    "lat": 20.4485,
    "lng": 121.9708
  },
  {
    "id": 201,
    "name": "CAMIGUIN ISLAND ,Camiguin",
    "imageUrl":"https://raw.githubusercontent.com/Mayville/TSOLU/master/E.jpg",
    "price": 1347,
    "priceCurrency": "Km",
    "lat": 9.1732,
    "lng":  124.7299
  },
  {
    "id": 205,
    "name": "CORON ,Palawan",
    "imageUrl": "https://raw.githubusercontent.com/Mayville/TSOLU/master/G.jpg",
    "price": 750,
    "priceCurrency": "Km",
    "lat": 12.0499,
    "lng": 120.1782
  },
  {
    "id": 210,
    "name": "BANANUE RICE TERRACES ,Ifugao",
    "imageUrl": "https://raw.githubusercontent.com/Mayville/TSOLU/master/J.jpg",
    "price": 223,
    "priceCurrency": "Km",
    "lat": 16.9240,
    "lng": 121.0556
  },
    {
    "id": 212,
    "name": "PUERTO PRINCESA ,Palawan",
    "imageUrl": "https://raw.githubusercontent.com/Mayville/TSOLU/master/I.jpg",
    "price": 1074,
    "priceCurrency": "Km",
    "lat": 10.1926,
    "lng": 118.9266
  },
  {
    "id": 213,
    "name": "CHOCOLATE HILLS ,Bohol",
    "imageUrl": "https://raw.githubusercontent.com/Mayville/TSOLU/master/K.jpg",
    "price": 100,
    "priceCurrency": "Km",
    "lat":16.8568,
    "lng": 120.3729
  },
  {
    "id": 214,
    "name": "VIGAN ,Ilocos Sur",
    "imageUrl": "https://raw.githubusercontent.com/Mayville/TSOLU/master/L.jpg",
    "price": 1228,
    "priceCurrency": "Km",
    "lat": 9.8297,
    "lng": 124.1397
  },
  {
    "id": 215,
    "name": "THE MANSION ,Baguio",
    "imageUrl": "https://raw.githubusercontent.com/Mayville/TSOLU/master/M.jpg",
    "price": 89,
    "priceCurrency": "Km",
    "lat": 16.4124,
    "lng": 120.6215
  },
  {
    "id": 212,
    "name": "BANGUI WINDMILLS ,ILOCOS NORTE",
    "imageUrl": "https://raw.githubusercontent.com/Mayville/TSOLU/master/N.jpg",
    "price": 288,
    "priceCurrency": "Km",
    "lat": 18.5286,
    "lng": 120.7181
  },
  {
    "id": 216,
    "name": "FANTASY WORLD ,Batangas",
    "imageUrl": "https://raw.githubusercontent.com/Mayville/TSOLU/master/R.jpg",
    "price": 395,
    "priceCurrency": "Km",
    "lat": 14.0156,
    "lng": 120.8730
  },
  {
    "id": 217,
    "name": "CAMBUGAHAY FALLS ,Siquijor",
    "imageUrl": "https://raw.githubusercontent.com/Mayville/TSOLU/master/P.jpg",
    "price": 1292,
    "priceCurrency": "Km",
    "lat": 9.1399,
    "lng":  123.6267
  },
   {
    "id": 218,
    "name": "BORACAY ISLAND ,Aklan",
    "imageUrl": "https://raw.githubusercontent.com/Mayville/TSOLU/master/C.jpg",
    "price": 745,
    "priceCurrency": "Km",
    "lat": 11.9674,
    "lng": 121.9248
  },
   {
    "id": 219,
    "name": "MALAPASCUA ISLAND ,Cebu",
    "imageUrl": "https://raw.githubusercontent.com/Mayville/TSOLU/master/F.jpg",
    "price": 1157,
    "priceCurrency": "Km",
    "lat": 11.3358,
    "lng": 124.1156
  },
   {
    "id": 220,
    "name": "MAYON VALCANO ,Albay",
    "imageUrl": "https://raw.githubusercontent.com/Mayville/TSOLU/master/H.jpg",
    "price": 799,
    "priceCurrency": "Km",
    "lat": 13.2548,
    "lng": 123.6861
  },
   {
    "id": 221,
    "name": "TAAL VALCANO ,Tagaytay",
    "imageUrl": "https://raw.githubusercontent.com/Mayville/TSOLU/master/s.jpg",
    "price": 372,
    "priceCurrency": "Km",
    "lat": 14.0113,
    "lng": 120.9977
  },
   {
    "id": 222,
    "name": "HUNDRED ISLAND ,Pangasinan",
    "imageUrl": "https://raw.githubusercontent.com/Mayville/TSOLU/master/O.jpg",
    "price": 163,
    "priceCurrency": "Km",
    "lat": 16.2040,
    "lng": 120.0409
  },
  {
    "id": 223,
    "name": "HUMA ISLAND ,Palawan",
    "imageUrl": "https://raw.githubusercontent.com/Mayville/TSOLU/master/A.jpg",
    "price": 789,
    "priceCurrency": "Km",
    "lat": 12.0537,
    "lng": 119.9023
  },
   {
    "id": 224,
    "name": "ENCHANTED RIVER ,Hinatuan",
    "imageUrl": "https://raw.githubusercontent.com/Mayville/TSOLU/master/Q.jpg",
    "price": 1650,
    "priceCurrency": "Km",
    "lat": 8.3837,
    "lng": 126.3715
  },
  {
    "id": 211,
    "name": "LIPAY SUR San Gabriel L.U",
    "imageUrl": "https://raw.githubusercontent.com/Mayville/TSOLU/master/13.png",
    "price": 16,
    "priceCurrency": "â‚±",
    "lat":  16.6694,
    "lng": 120.5049
  }
]
