[
  {
    "id": 145,
    "name": "TANGADAN FALLS San Gabriel L.U",
    "imageUrl":"https://raw.githubusercontent.com/Mayville/TSOLU/master/TangadanFalls_06.jpg",
    "price":100,
    "priceCurrency": "PHP",
    "lat": 16.6436,
    "lng": 120.4488
  },
  {
    "id": 148,
    "name": "MACHO TEMPLE San Fernando L.U",
    "imageUrl": "https://raw.githubusercontent.com/Mayville/TSOLU/master/16334753526_cab4bfe4f4_b.jpg",
    "price": 20,
    "priceCurrency": "PHP",
    "lat": 16.6212,
    "lng": 120.3175
  },
  {
    "id": 201,
    "name": "KAMAY NA BATO Luna L.U",
    "imageUrl":"https://raw.githubusercontent.com/Mayville/TSOLU/master/san-juan-kz-riman-6.jpg",
    "price": 60,
    "priceCurrency": "PHP",
    "lat": 16.8308,
    "lng":  120.3551
  },
  {
    "id": 205,
    "name": "PEBBLE BEACH Luna L.U",
    "imageUrl": "https://raw.githubusercontent.com/Mayville/TSOLU/master/peeble.jpg",
    "price": 30",
    "priceCurrency": "PHP",
    "lat": 16.8393,
    "lng": 120.3382
  },
  {
    "id": 210,
    "name": "THUNDERBIRD RESORT San Fernando L.U",
    "imageUrl": "https://raw.githubusercontent.com/Mayville/TSOLU/master/download.jpg",
    "price": 200,
    "priceCurrency": "PHP",
    "lat": 16.6091,
    "lng": 120.2865
  },
    {
    "id": 212,
    "name": "GRAPE PICKING Bauang L.U",
    "imageUrl": "https://raw.githubusercontent.com/Mayville/TSOLU/master/33.JPG",
    "price": 300,
    "priceCurrency": "PHP",
    "lat": 16.5143,
    "lng": 120.3551
  },
  {
    "id": 213,
    "name": "WATCH TOWER Luna L.U",
    "imageUrl": "https://raw.githubusercontent.com/Mayville/TSOLU/master/34.jpg",
    "price": 100,
    "priceCurrency": "PHP",
    "lat":16.8568,
    "lng": 120.3729
  },
  {
    "id": 214,
    "name": "HALO HALO DE ILOKO San Fernando L.U",
    "imageUrl": "https://raw.githubusercontent.com/Mayville/TSOLU/master/35.jpg",
    "price": 1000,
    "priceCurrency": "PHP",
    "lat": 16.6173,
    "lng": 120.3198
  },
  {
    "id": 215,
    "name": "BASILICA MINORE OF OUR LADY OF CHARITY Agoo L.U",
    "imageUrl": "https://raw.githubusercontent.com/Mayville/TSOLU/master/36.jpg",
    "price": 30,
    "priceCurrency": "PHP"
    "lat": 16.3247,
    "lng": 120.3551
  },
  {
    "id": 212,
    "name": "PINDANGAN RUINS San Fernando L.U",
    "imageUrl": "https://raw.githubusercontent.com/Mayville/TSOLU/master/37.jpg",
    "price": 20,
    "priceCurrency": "PHP",
    "lat": 16.5881,
    "lng": 120.3146
  },
  {
    "id": 216,
    "name": "PUGAD ADVENTURE Pugo L.U",
    "imageUrl": "https://raw.githubusercontent.com/Mayville/TSOLU/master/39.jpg",
    "price": 300,
    "priceCurrency": "PHP",
    "lat": 16.3367,
    "lng": 120.4788
  },
  {
    "id": 217,
    "name": "BALAY ANITO FALLS San Gabriel  L.U",
    "imageUrl": "https://raw.githubusercontent.com/Mayville/TSOLU/master/38.jpg",
    "price": 50,
    "priceCurrency": "PHP",
    "lat": 16.7379,
    "lng": 120.4546
  },
  {
    "id": 211,
    "name": "LIPAY SUR San Gabriel L.U",
    "imageUrl": "https://raw.githubusercontent.com/Mayville/TSOLU/master/13.png",
    "price": 50,
    "priceCurrency": "PHP",
    "lat":  16.7379,
    "lng": 120.4546
  }
]
