[
  {
    "id": 145,
    "name": "TANGADAN FALLS San Gabrirl L.U",
    "imageUrl":"https://raw.githubusercontent.com/Mayville/TSOLU/master/TangadanFalls_06.jpg",
    "price": 20,
    "priceCurrency": "PHP",
    "lat": 16.6436,
    "lng": 120.4488
  },
  {
    "id": 148,
    "name": "MACHO TEMPLE San Fernando L.U",
    "imageUrl": "https://raw.githubusercontent.com/Mayville/TSOLU/master/16334753526_cab4bfe4f4_b.jpg",
    "price": 20,
    "priceCurrency": "PHP",
    "lat": 16.6212,
    "lng": 120.3175
  },
  {
    "id": 201,
    "name": "KAMAY NA BATO Luna L.U",
    "imageUrl":"https://www.google.com.ph/search?rlz=1C1CHBD_enPH791PH791&biw=1920&bih=925&tbm=isch&sa=1&ei=WSlQW_aCHNv6-QaDrIp4&q=kamay+na+bato+la+union&oq=kama+na+bato&gs_l=img.3.0.0i7i30k1l4.27234.29638.0.31246.4.4.0.0.0.0.71.265.4.4.0....0...1c.1.64.img..0.4.265...0i7i5i30k1j0i8i7i30k1.0.BDTBNU3NDUU#imgrc=xpe9emHR7Y32sM:",
    "price": 60,
    "priceCurrency": "PHP",
    "lat": 48.885312,
    "lng": 2.341225
  },
  {
    "id": 205,
    "name": "PEBBLE BEACH Luna L.U",
    "imageUrl": "https://raw.githubusercontent.com/Mayville/TSOLU/master/12716291_1257933557556632_728312132187861262_o.jpg",
    "price": 30,
    "priceCurrency": "PHP",
    "lat": 48.881840,
    "lng": 2.343371
  },
  {
    "id": 210,
    "name": "THUNDERBIRD RESORT San Fernando L.U",
    "imageUrl": "https://www.google.com.ph/search?q=thunderbird+la+union&rlz=1C1CHBD_enPH791PH791&source=lnms&tbm=isch&sa=X&ved=0ahUKEwi328GTwarcAhXBdd4KHVKPA7kQ_AUICigB&biw=1920&bih=925#imgrc=lB-sSWirXJANbM:",
    "price": 200,
    "priceCurrency": "PHP",
    "lat": 48.888839,
    "lng": 2.339208
  },
  {
    "id": 211,
    "name": "LIPAY SUR San Gabriel L.U",
    "imageUrl": "https://raw.githubusercontent.com/Mayville/TSOLU/master/13.png",
    "price": 50,
    "priceCurrency": "PHP",
    "lat": 48.827855,
    "lng": 2.350774
  }
]
